[
  {
    "id": "everland_speedway",
    "name": "에버랜드 스피드웨이",
    "description": "FIA Grade 3 공인 서킷",
    "address": "경기도 용인시 처인구 포곡읍 에버랜드로 199",
    "grade": "FIA International Grade 3",
    "start_line_lat": 37.2942,
    "start_line_lng": 127.2023,
    "start_line_bearing": 180.0,
    "length_meters": 4346,
    "outline_points": [],
    "sectors": []
  },
  {
    "id": "inje_speedium",
    "name": "인제 스피디움",
    "description": "FIA Grade 2 공인 서킷",
    "address": "강원도 인제군 기린면 상하답로 130",
    "grade": "FIA International Grade 2",
    "start_line_lat": 38.0581,
    "start_line_lng": 128.2947,
    "start_line_bearing": 0.0,
    "length_meters": 3908,
    "outline_points": [],
    "sectors": []
  },
  {
    "id": "inje_speedium_kart",
    "name": "인제 스피디움 카트장",
    "description": "KARA 국내 임시 카트장",
    "address": "강원도 인제군 기린면 상하답로 130",
    "grade": "KARA 국내 임시 카트장",
    "start_line_lat": 38.0575,
    "start_line_lng": 128.2940,
    "start_line_bearing": 0.0,
    "length_meters": 800,
    "outline_points": [],
    "sectors": []
  },
  {
    "id": "velfore_motoarena",
    "name": "벨포레 인터내셔널 모토아레나",
    "description": "FIA International 카트장",
    "address": "충청북도 증평군 도안면 벨포레길 346",
    "grade": "FIA International 카트장",
    "start_line_lat": 36.7850,
    "start_line_lng": 127.5850,
    "start_line_bearing": 0.0,
    "length_meters": 1504,
    "outline_points": [],
    "sectors": []
  },
  {
    "id": "taebaek_speedway",
    "name": "태백 스피드웨이",
    "description": "KARA 국내 상설 자동차경주장",
    "address": "강원도 태백시 사군드리길 240번지",
    "grade": "KARA 국내 상설 자동차경주장",
    "start_line_lat": 37.1647,
    "start_line_lng": 128.9856,
    "start_line_bearing": 0.0,
    "length_meters": 2500,
    "outline_points": [],
    "sectors": []
  },
  {
    "id": "daegu_test_track",
    "name": "대구 지능형자동차부품 진흥원 주행시험장",
    "description": "KARA 드래그 스트립타입B",
    "address": "대구 지능형자동차부품 진흥원 주행시험장",
    "grade": "KARA 드래그 스트립타입B",
    "start_line_lat": 35.8714,
    "start_line_lng": 128.6014,
    "start_line_bearing": 0.0,
    "length_meters": 400,
    "outline_points": [],
    "sectors": []
  },
  {
    "id": "kic_full",
    "name": "코리아인터내셔널서킷 풀코스",
    "description": "FIA Grade 1 공인 서킷 (F1 코리아 GP 개최)",
    "address": "전라남도 영암군 삼호읍 에프원로2",
    "grade": "FIA International Grade 1",
    "start_line_lat": 34.7352,
    "start_line_lng": 126.4169,
    "start_line_bearing": 180.0,
    "length_meters": 5615,
    "outline_points": [],
    "sectors": []
  },
  {
    "id": "kic_track1",
    "name": "코리아인터내셔널서킷 트랙1",
    "description": "FIA Grade 2 공인 서킷 (동쪽 구간)",
    "address": "전라남도 영암군 삼호읍 에프원로2",
    "grade": "FIA International Grade 2",
    "start_line_lat": 34.7352,
    "start_line_lng": 126.4169,
    "start_line_bearing": 180.0,
    "length_meters": 3031,
    "outline_points": [],
    "sectors": []
  },
  {
    "id": "kic_track2",
    "name": "코리아인터내셔널서킷 트랙2",
    "description": "FIA Grade 2 공인 서킷 (서쪽 구간)",
    "address": "전라남도 영암군 삼호읍 에프원로2",
    "grade": "FIA International Grade 2",
    "start_line_lat": 34.7352,
    "start_line_lng": 126.4169,
    "start_line_bearing": 180.0,
    "length_meters": 2964,
    "outline_points": [],
    "sectors": []
  }
]
